{"results": [{"distance": 10, "location": {"address": "568 Beatty St", "country": "CA", "cross_street": "btwn W Pender & Dunsmuir", "formatted_address": "568 Beatty St (btwn W Pender & Dunsmuir), Vancouver BC V6B 2L3", "locality": "Vancouver", "neighborhood": ["Gastown"], "postcode": "V6B 2L3", "region": "BC"}, "name": "Chambar", "price": 3, "rating": 8.9, "stats": {"total_photos": 547, "total_ratings": 517, "total_tips": 120}}, {"distance": 28, "location": {"address": "562 Beatty St", "country": "CA", "cross_street": "btwn Pender & Dunsmuir", "formatted_address": "562 Beatty St (btwn Pender & Dunsmuir), Vancouver BC V6B 2L3", "locality": "Vancouver", "neighborhood": ["Central"], "postcode": "V6B 2L3", "region": "BC"}, "name": "Devil's Elbow Ale & Smoke House", "price": 3, "rating": 7.6, "stats": {"total_photos": 64, "total_ratings": 68, "total_tips": 10}}, {"distance": 45, "location": {"address": "556 Beatty St", "country": "CA", "cross_street": "", "formatted_address": "556 Beatty St, Vancouver BC V6B 2L3", "locality": "Vancouver", "neighborhood": ["Gastown-Yaletown"], "postcode": "V6B 2L3", "region": "BC"}, "name": "Jam Cafe", "price": 1, "rating": 8.7, "stats": {"total_photos": 249, "total_ratings": 147, "total_tips": 37}}, {"distance": 89, "location": {"address": "111 Dunsmuir St", "address_extended": "# 105", "country": "CA", "cross_street": "at Beatty St.", "formatted_address": "111 Dunsmuir St (at Beatty St.), Vancouver BC V6B 6A3", "locality": "Vancouver", "neighborhood": ["\"\""], "postcode": "V6B 6A3", "region": "BC"}, "name": "Fatburger", "price": 1, "rating": 7.3, "stats": {"total_photos": 63, "total_ratings": 50, "total_tips": 11}}, {"distance": 103, "location": {"address": "193 Keefer Pl", "country": "CA", "cross_street": "", "formatted_address": "193 Keefer Pl, Vancouver BC V6B 6L4", "locality": "Vancouver", "neighborhood": ["Gastown-Yaletown"], "postcode": "V6B 6L4", "region": "BC"}, "name": "PappaRoti", "price": 1, "rating": 7.4, "stats": {"total_photos": 8, "total_ratings": 9, "total_tips": 3}}, {"distance": 121, "location": {"address": "189 Keefer Pl", "country": "CA", "cross_street": "", "formatted_address": "189 Keefer Pl, Vancouver BC V6B 6L4", "locality": "Vancouver", "neighborhood": ["Downtown"], "postcode": "V6B 6L4", "region": "BC"}, "name": "Pizzeria Ludica", "price": 1, "rating": 8.4, "stats": {"total_photos": 61, "total_ratings": 76, "total_tips": 19}}, {"distance": 121, "location": {"address": "110 Dunsmuir St", "country": "CA", "cross_street": "Beatty St", "formatted_address": "110 Dunsmuir St (Beatty St), Vancouver BC V6B 1X7", "locality": "Vancouver", "postcode": "V6B 1X7", "region": "BC"}, "name": "Yolk's Breakfast", "price": 1, "rating": 8.1, "stats": {"total_photos": 69, "total_ratings": 39, "total_tips": 16}}, {"distance": 165, "location": {"address": "605 Expo Blvd", "country": "CA", "cross_street": "btwn Abbott & Smithe", "formatted_address": "605 Expo Blvd (btwn Abbott & Smithe), Vancouver BC V6B 1V4", "locality": "Vancouver", "postcode": "V6B 1V4", "region": "BC"}, "name": "Costco Snacks", "price": 1, "rating": 7.2, "stats": {"total_photos": 58, "total_ratings": 30, "total_tips": 3}}, {"distance": 179, "location": {"address": "516 Abbott St", "country": "CA", "cross_street": "", "formatted_address": "516 Abbott St, Vancouver BC V6B 6N7", "locality": "Vancouver", "neighborhood": ["Gastown-Yaletown"], "postcode": "V6B 6N7", "region": "BC"}, "name": "Einstein Wrap House", "price": 1, "rating": 7.8, "stats": {"total_photos": 7, "total_ratings": 16, "total_tips": 9}}, {"distance": 189, "location": {"address": "638 Abbott St", "country": "CA", "cross_street": "at Keefer Place", "formatted_address": "638 Abbott St (at Keefer Place), Vancouver BC V6B 0E1", "locality": "Vancouver", "neighborhood": ["Central"], "postcode": "V6B 0E1", "region": "BC"}, "name": "Uncle Fatih's Pizza", "price": 1, "rating": 7.1, "stats": {"total_photos": 24, "total_ratings": 34, "total_tips": 9}}, {"distance": 256, "location": {"address": "88 Pender St W", "address_extended": "# 2006", "country": "CA", "cross_street": "Abbott st", "formatted_address": "88 Pender St W (Abbott st), Vancouver BC V6B 6N9", "locality": "Vancouver", "neighborhood": ["Central"], "postcode": "V6B 6N9", "region": "BC"}, "name": "Bali Thai", "price": 2, "rating": 7.3, "stats": {"total_photos": 16, "total_ratings": 11, "total_tips": 4}}, {"distance": 271, "location": {"address": "156 Hastings St W", "country": "CA", "cross_street": "at Cambie St.", "formatted_address": "156 Hastings St W (at Cambie St.), Vancouver BC V6B 1G8", "locality": "Vancouver", "neighborhood": ["Gastown"], "postcode": "V6B 1G8", "region": "BC"}, "name": "The Hastings Warehouse", "price": 1, "rating": 7.2, "stats": {"total_photos": 135, "total_ratings": 142, "total_tips": 45}}, {"distance": 275, "location": {"address": "159 Hastings St W", "country": "CA", "cross_street": "btwn Cambie & Abbott", "formatted_address": "159 Hastings St W (btwn Cambie & Abbott), Vancouver BC V6B 1H4", "locality": "Vancouver", "neighborhood": ["Central"], "postcode": "V6B 1H4", "region": "BC"}, "name": "Purebread", "price": 1, "rating": 8.9, "stats": {"total_photos": 130, "total_ratings": 137, "total_tips": 30}}, {"distance": 282, "location": {"address": "122 Hastings St W", "country": "CA", "cross_street": "at Abbott St", "formatted_address": "122 Hastings St W (at Abbott St), Vancouver BC V6B 1G8", "locality": "Vancouver", "neighborhood": ["Central"], "postcode": "V6B 1G8", "region": "BC"}, "name": "Catch 122", "price": 1, "rating": 7.9, "stats": {"total_photos": 318, "total_ratings": 197, "total_tips": 58}}, {"distance": 288, "location": {"address": "88 Pender St W", "address_extended": "# 1021", "country": "CA", "cross_street": "", "formatted_address": "88 Pender St W, Vancouver BC V6B 6N9", "locality": "Vancouver", "neighborhood": ["Gastown-Yaletown"], "postcode": "V6B 6N9", "region": "BC"}, "name": "Congee Noodle Delight", "price": 1, "rating": 7.4, "stats": {"total_photos": 36, "total_ratings": 26, "total_tips": 5}}, {"distance": 296, "location": {"address": "370 Cambie St", "country": "CA", "cross_street": "btwn Cordova & Hastings", "formatted_address": "370 Cambie St (btwn Cordova & Hastings), Vancouver BC V6B 2N3", "locality": "Vancouver", "neighborhood": ["Gastown"], "postcode": "V6B 2N3", "region": "BC"}, "name": "Meat & Bread", "price": 2, "rating": 9.2, "stats": {"total_photos": 657, "total_ratings": 606, "total_tips": 165}}, {"distance": 313, "location": {"address": "207B W Hastings St", "address_extended": "# 1211", "country": "CA", "cross_street": "at Cambie St", "formatted_address": "207B W Hastings St (at Cambie St), Vancouver BC V6B 1H7", "locality": "Vancouver", "neighborhood": ["Gastown"], "postcode": "V6B 1H7", "region": "BC"}, "name": "Nuba", "price": 2, "rating": 8.0, "stats": {"total_photos": 198, "total_ratings": 263, "total_tips": 83}}, {"distance": 320, "location": {"address": "765 Beatty St", "country": "CA", "cross_street": "btw Robson and Georgia", "formatted_address": "765 Beatty St (btw Robson and Georgia), Vancouver BC V6B 2M4", "locality": "Vancouver", "neighborhood": ["Downtown"], "postcode": "V6B 2M4", "region": "BC"}, "name": "Frankie's Italian Kitchen & Bar", "price": 2, "rating": 7.3, "stats": {"total_photos": 61, "total_ratings": 50, "total_tips": 14}}, {"distance": 321, "location": {"address": "301 Hastings St W", "address_extended": "# 500", "country": "CA", "cross_street": "at Cambie St", "formatted_address": "301 Hastings St W (at Cambie St), Vancouver BC V6B 1H6", "locality": "Vancouver", "neighborhood": ["Downtown"], "postcode": "V6B 1H6", "region": "BC"}, "name": "New Amsterdam Cafe", "price": 1, "rating": 8.6, "stats": {"total_photos": 59, "total_ratings": 75, "total_tips": 13}}, {"distance": 332, "location": {"address": "324 Cambie St", "country": "CA", "cross_street": "", "formatted_address": "324 Cambie St, Vancouver BC V6B 2N3", "locality": "Vancouver", "neighborhood": ["Gastown-Yaletown"], "postcode": "V6B 2N3", "region": "BC"}, "name": "Haru Korean Kitchen", "price": 2, "rating": 7.4, "stats": {"total_photos": 22, "total_ratings": 21, "total_tips": 5}}, {"distance": 333, "location": {"address": "353 Pender St W", "country": "CA", "cross_street": "at Homer St", "formatted_address": "353 Pender St W (at Homer St), Vancouver BC V6B 1T3", "locality": "Vancouver", "neighborhood": ["Gastown"], "postcode": "V6B 1T3", "region": "BC"}, "name": "Finch's Tea & Coffee House", "price": 2, "rating": 8.6, "stats": {"total_photos": 207, "total_ratings": 180, "total_tips": 55}}, {"distance": 334, "location": {"address": "51 Hastings St W", "country": "CA", "cross_street": "", "formatted_address": "51 Hastings St W, Vancouver BC V6B 1G4", "locality": "Vancouver", "neighborhood": ["Gastown-Yaletown"], "postcode": "V6B 1G4", "region": "BC"}, "name": "Moltaqa Moroccan Restaurant", "price": 2, "rating": 7.6, "stats": {"total_photos": 8, "total_ratings": 10, "total_tips": 2}}, {"distance": 337, "location": {"address": "322 Hastings St W", "country": "CA", "cross_street": "btwn Homer & Hamilton", "formatted_address": "322 Hastings St W (btwn Homer & Hamilton), Vancouver BC V6B 1K6", "locality": "Vancouver", "neighborhood": ["Downtown"], "postcode": "V6B 1K6", "region": "BC"}, "name": "La Taqueria", "price": 2, "rating": 8.7, "stats": {"total_photos": 169, "total_ratings": 212, "total_tips": 64}}, {"distance": 345, "location": {"address": "415 Dunsmuir St", "country": "CA", "cross_street": "", "formatted_address": "415 Dunsmuir St, Vancouver BC V6B 1X4", "locality": "Vancouver", "neighborhood": ["Gastown-Yaletown"], "postcode": "V6B 1X4", "region": "BC"}, "name": "Field & Social", "price": 2, "rating": 7.1, "stats": {"total_photos": 16, "total_ratings": 18, "total_tips": 6}}, {"distance": 355, "location": {"address": "762 Cambie St", "country": "CA", "cross_street": "", "formatted_address": "762 Cambie St, Vancouver BC V6B 2P2", "locality": "Vancouver", "neighborhood": ["Gastown-Yaletown"], "postcode": "V6B 2P2", "region": "BC"}, "name": "Fanny Bay Oyster Bar & Shellfish Market", "price": 3, "rating": 8.7, "stats": {"total_photos": 120, "total_ratings": 57, "total_tips": 14}}, {"distance": 358, "location": {"address": "33 Hastings St W", "country": "CA", "cross_street": "btwn Abbott & Carrall", "formatted_address": "33 Hastings St W (btwn Abbott & Carrall), Vancouver BC V6B 1G4", "locality": "Vancouver", "neighborhood": ["Central"], "postcode": "V6B 1G4", "region": "BC"}, "name": "Lost and Found Cafe", "price": 1, "rating": 7.9, "stats": {"total_photos": 100, "total_ratings": 99, "total_tips": 31}}, {"distance": 363, "location": {"address": "782 Cambie St", "country": "CA", "cross_street": "Robson", "formatted_address": "782 Cambie St (Robson), Vancouver BC V6B 2P2", "locality": "Vancouver", "neighborhood": ["Central"], "postcode": "V6B 2P2", "region": "BC"}, "name": "Black Rice Izakaya", "price": 2, "rating": 8.1, "stats": {"total_photos": 60, "total_ratings": 71, "total_tips": 10}}, {"distance": 390, "location": {"address": "101 Robson St", "country": "CA", "cross_street": "Beatty", "formatted_address": "101 Robson St (Beatty), Vancouver BC V6B 2A8", "locality": "Vancouver", "neighborhood": ["Gastown-Yaletown"], "postcode": "V6B 2A8", "region": "BC"}, "name": "Sciue Italian Bakery and Caffee", "price": 1, "rating": 7.1, "stats": {"total_photos": 5, "total_ratings": 10}}, {"distance": 412, "location": {"address": "301W Cordova St W", "country": "CA", "cross_street": "at Cambie St", "formatted_address": "301W Cordova St W (at Cambie St), Vancouver BC V6B 1E5", "locality": "Vancouver", "neighborhood": ["Downtown"], "postcode": "V6B 1E5", "region": "BC"}, "name": "Bambo Cafe", "price": 1, "rating": 7.4, "stats": {"total_photos": 32, "total_ratings": 38, "total_tips": 13}}, {"distance": 421, "location": {"address": "428 Carrall St", "address_extended": "X1", "country": "CA", "cross_street": "at Hastings St.", "formatted_address": "428 Carrall St (at Hastings St.), Vancouver BC V6B 2J7", "locality": "Vancouver", "neighborhood": ["Chinatown"], "postcode": "V6B 2J7", "region": "BC"}, "name": "Calabash Bistro", "price": 2, "rating": 8.4, "stats": {"total_photos": 111, "total_ratings": 107, "total_tips": 45}}, {"distance": 421, "location": {"address": "307 Cordova St W", "country": "CA", "cross_street": "at Cambie St", "formatted_address": "307 Cordova St W (at Cambie St), Vancouver BC V6B 1E5", "locality": "Vancouver", "neighborhood": ["Gastown"], "postcode": "V6B 1E5", "region": "BC"}, "name": "The Greedy Pig", "price": 2, "rating": 7.1, "stats": {"total_photos": 43, "total_ratings": 58, "total_tips": 29}}, {"distance": 427, "location": {"address": "265 Robson St", "country": "CA", "cross_street": "", "formatted_address": "265 Robson St, Vancouver BC V6B 0E7", "locality": "Vancouver", "neighborhood": ["Robson Street"], "postcode": "V6B 0E7", "region": "BC"}, "name": "Patron Tacos & Cantina", "price": 2, "rating": 6.7, "stats": {"total_photos": 127, "total_ratings": 117, "total_tips": 28}}, {"distance": 434, "location": {"address": "808 Beatty St", "country": "CA", "cross_street": "Robson St", "formatted_address": "808 Beatty St (Robson St), Vancouver BC V6B 1C2", "locality": "Vancouver", "neighborhood": ["Central"], "postcode": "V6B 1C2", "region": "BC"}, "name": "Boston Pizza", "price": 1, "rating": 7.7, "stats": {"total_photos": 43, "total_ratings": 53, "total_tips": 5}}, {"distance": 435, "location": {"address": "270 Robson St", "country": "CA", "cross_street": "", "formatted_address": "270 Robson St, Vancouver BC V6B 6A1", "locality": "Vancouver", "postcode": "V6B 6A1", "region": "BC"}, "name": "Marutama Ramen", "rating": 7.5, "stats": {"total_photos": 72, "total_ratings": 53, "total_tips": 6}}, {"distance": 441, "location": {"address": "436 Richards St", "country": "CA", "cross_street": "Hastings St", "formatted_address": "436 Richards St (Hastings St), Vancouver BC V6B 2Z3", "locality": "Vancouver", "neighborhood": ["Gastown-Yaletown"], "postcode": "V6B 2Z3", "region": "BC"}, "name": "Indigo Age Cafe", "price": 2, "rating": 7.4, "stats": {"total_photos": 39, "total_ratings": 26, "total_tips": 6}}, {"distance": 457, "location": {"address": "401W Cordova St W", "country": "CA", "cross_street": "at Homer St", "formatted_address": "401W Cordova St W (at Homer St), Vancouver BC V6B 1E5", "locality": "Vancouver", "neighborhood": ["Downtown"], "postcode": "V6B 1E5", "region": "BC"}, "name": "Brioche Urban Baking & Catering", "price": 2, "rating": 7.5, "stats": {"total_photos": 97, "total_ratings": 90, "total_tips": 29}}, {"distance": 457, "location": {"address": "216 Abbott St", "country": "CA", "cross_street": "btw Water St. & Cordova St.", "formatted_address": "216 Abbott St (btw Water St. & Cordova St.), Vancouver BC V6B 2K8", "locality": "Vancouver", "neighborhood": ["Gastown"], "postcode": "V6B 2K8", "region": "BC"}, "name": "Jules Bistro", "price": 3, "rating": 7.2, "stats": {"total_photos": 66, "total_ratings": 39, "total_tips": 16}}, {"distance": 461, "location": {"address": "519 Pender St W", "country": "CA", "cross_street": "Richards Street", "formatted_address": "519 Pender St W (Richards Street), Vancouver BC V6B 1V5", "locality": "Vancouver", "neighborhood": ["Gastown"], "postcode": "V6B 1V5", "region": "BC"}, "name": "Koala Kebabs Donairs", "price": 1, "rating": 7.2, "stats": {"total_photos": 10, "total_ratings": 18, "total_tips": 5}}, {"distance": 462, "location": {"address": "350 Carrall St", "country": "CA", "cross_street": "btwn Cordova & Hastings", "formatted_address": "350 Carrall St (btwn Cordova & Hastings), Vancouver BC V6B 2J3", "locality": "Vancouver", "neighborhood": ["Gastown"], "postcode": "V6B 2J3", "region": "BC"}, "name": "Pidgin", "price": 3, "rating": 8.5, "stats": {"total_photos": 236, "total_ratings": 140, "total_tips": 39}}, {"distance": 462, "location": {"address": "422 Richards St", "address_extended": "# 101", "country": "CA", "cross_street": "", "formatted_address": "422 Richards St, Vancouver BC V6B 2Z4", "locality": "Vancouver", "neighborhood": ["Gastown-Yaletown"], "postcode": "V6B 2Z4", "region": "BC"}, "name": "Vegan Pudding & Co", "price": 2, "rating": 7.4, "stats": {"total_photos": 8, "total_ratings": 21, "total_tips": 4}}, {"distance": 464, "location": {"address": "420 Richards St", "country": "CA", "cross_street": "at W Hastings St", "formatted_address": "420 Richards St (at W Hastings St), Vancouver BC V6B 2Z3", "locality": "Vancouver", "neighborhood": ["Gastown-Yaletown"], "postcode": "V6B 2Z3", "region": "BC"}, "name": "The Poke Guy", "rating": 8.3, "stats": {"total_photos": 52, "total_ratings": 32, "total_tips": 6}}, {"distance": 470, "location": {"address": "340 Robson St", "country": "CA", "cross_street": "btwn Hamilton & Homer", "formatted_address": "340 Robson St (btwn Hamilton & Homer), Vancouver BC V6B 2B2", "locality": "Vancouver", "neighborhood": ["Central"], "postcode": "V6B 2B2", "region": "BC"}, "name": "Le Petit Belge", "price": 1, "rating": 7.1, "stats": {"total_photos": 66, "total_ratings": 68, "total_tips": 15}}, {"distance": 476, "location": {"address": "558 Dunsmuir St", "country": "CA", "cross_street": "", "formatted_address": "558 Dunsmuir St, Vancouver BC V6B 1Y1", "locality": "Vancouver", "neighborhood": ["Gastown-Yaletown"], "postcode": "V6B 1Y1", "region": "BC"}, "name": "Pok\u00e9rrito", "rating": 7.6, "stats": {"total_photos": 23, "total_ratings": 38, "total_tips": 5}}, {"distance": 480, "location": {"address": "350 Robson St", "country": "CA", "cross_street": "btwn Homer & Hamilton", "formatted_address": "350 Robson St (btwn Homer & Hamilton), Vancouver BC V6B 2B2", "locality": "Vancouver", "neighborhood": ["Central"], "postcode": "V6B 2B2", "region": "BC"}, "name": "Straight Outta Brooklyn NYC Pizzeria", "price": 1, "rating": 8.3, "stats": {"total_photos": 88, "total_ratings": 93, "total_tips": 16}}, {"distance": 481, "location": {"address": "315 Carrall St", "country": "CA", "cross_street": "btwn Cordova & Hastings", "formatted_address": "315 Carrall St (btwn Cordova & Hastings), Vancouver BC V6B 2J4", "locality": "Vancouver", "neighborhood": ["Gastown"], "postcode": "V6B 2J4", "region": "BC"}, "name": "Nelson the Seagull", "price": 2, "rating": 8.5, "stats": {"total_photos": 374, "total_ratings": 279, "total_tips": 68}}, {"distance": 483, "location": {"address": "300 Water St", "address_extended": "# 400", "country": "CA", "cross_street": "at Cambie St", "formatted_address": "300 Water St (at Cambie St), Vancouver BC V6B 1B6", "locality": "Vancouver", "neighborhood": ["Downtown"], "postcode": "V6B 1B6", "region": "BC"}, "name": "Water St Cafe", "price": 3, "rating": 6.9, "stats": {"total_photos": 88, "total_ratings": 69, "total_tips": 31}}, {"distance": 484, "location": {"address": "162 Water St", "country": "CA", "cross_street": "btwn Cambie & Abbott", "formatted_address": "162 Water St (btwn Cambie & Abbott), Vancouver BC V6B 1B2", "locality": "Vancouver", "neighborhood": ["Gastown"], "postcode": "V6B 1B2", "region": "BC"}, "name": "Pourhouse Restaurant", "price": 2, "rating": 8.8, "stats": {"total_photos": 330, "total_ratings": 379, "total_tips": 117}}, {"distance": 486, "location": {"address": "27 Trounce Alley", "country": "CA", "cross_street": "btwn Abbott & Carrall", "formatted_address": "27 Trounce Alley (btwn Abbott & Carrall), Vancouver BC V6B 0C4", "locality": "Vancouver", "neighborhood": ["Central"], "postcode": "V6B 0C4", "region": "BC"}, "name": "Gringo", "price": 1, "rating": 8.3, "stats": {"total_photos": 47, "total_ratings": 78, "total_tips": 17}}, {"distance": 495, "location": {"address": "321 Water St", "country": "CA", "cross_street": "at Cambie St.", "formatted_address": "321 Water St (at Cambie St.), Vancouver BC V6B 1B8", "locality": "Vancouver", "neighborhood": ["Gastown"], "postcode": "V6B 1B8", "region": "BC"}, "name": "Trees Organic Coffee", "price": 1, "rating": 7.2, "stats": {"total_photos": 133, "total_ratings": 80, "total_tips": 29}}, {"distance": 497, "location": {"address": "15 Cordova St W", "country": "CA", "cross_street": "btwn Abbott & Carrall", "formatted_address": "15 Cordova St W (btwn Abbott & Carrall), Vancouver BC V6B 1C8", "locality": "Vancouver", "neighborhood": ["Central"], "postcode": "V6B 1C8", "region": "BC"}, "name": "Tacofino", "price": 1, "rating": 8.7, "stats": {"total_photos": 205, "total_ratings": 304, "total_tips": 61}}], "context": {"geo_bounds": {"circle": {"center": {"latitude": 49.28, "longitude": -123.11}, "radius": 1000}}}}